{
"type": "FeatureCollection",
"name": "points_empresa",
"crs": { "type": "name", "properties": { "name": "urn:ogc:def:crs:OGC:1.3:CRS84" } },
"features": [
{ "type": "Feature", "properties": { "Nombre": "IMPROMEC", "Tipo de Em": "Fábrica", "Latitud": -10.6668672, "Longitud": -76.2588699 }, "geometry": { "type": "Point", "coordinates": [ -76.2588699, -10.6668672 ] } },
{ "type": "Feature", "properties": { "Nombre": "Traccims Tebama S.A.", "Tipo de Em": "Proveedor de maquinaria", "Latitud": -10.6865203, "Longitud": -76.2422426 }, "geometry": { "type": "Point", "coordinates": [ -76.2422426, -10.6865203 ] } },
{ "type": "Feature", "properties": { "Nombre": "Rueda de Avisos Pasco", "Tipo de Em": "Oficinas de empresa", "Latitud": -10.6607513, "Longitud": -76.2533451 }, "geometry": { "type": "Point", "coordinates": [ -76.2533451, -10.6607513 ] } },
{ "type": "Feature", "properties": { "Nombre": "Servicios Generales Suárez S.A.C.", "Tipo de Em": "Empresa constructora", "Latitud": -10.6703428, "Longitud": -76.2502097 }, "geometry": { "type": "Point", "coordinates": [ -76.2502097, -10.6703428 ] } },
{ "type": "Feature", "properties": { "Nombre": "Empresa de Transportes San Pedro", "Tipo de Em": "Servicio de transporte", "Latitud": -10.6666524, "Longitud": -76.2559526 }, "geometry": { "type": "Point", "coordinates": [ -76.2559526, -10.6666524 ] } },
{ "type": "Feature", "properties": { "Nombre": "EMAPA Pasco", "Tipo de Em": "Oficinas de empresa", "Latitud": -10.6667892, "Longitud": -76.2534912 }, "geometry": { "type": "Point", "coordinates": [ -76.2534912, -10.6667892 ] } },
{ "type": "Feature", "properties": { "Nombre": "COER Pasco", "Tipo de Em": "Oficinas de empresa", "Latitud": -10.6643775, "Longitud": -76.2528013 }, "geometry": { "type": "Point", "coordinates": [ -76.2528013, -10.6643775 ] } },
{ "type": "Feature", "properties": { "Nombre": "Torno cerro de pasco hamsa", "Tipo de Em": "Desconocido", "Latitud": -10.6896335, "Longitud": -76.24901 }, "geometry": { "type": "Point", "coordinates": [ -76.24901, -10.6896335 ] } },
{ "type": "Feature", "properties": { "Nombre": "CONECTAMEF PASCO", "Tipo de Em": "Oficinas de empresa", "Latitud": -10.6654361, "Longitud": -76.2548449 }, "geometry": { "type": "Point", "coordinates": [ -76.2548449, -10.6654361 ] } },
{ "type": "Feature", "properties": { "Nombre": "Taller Villa de Pasco", "Tipo de Em": "Oficinas de empresa", "Latitud": -10.7798907, "Longitud": -76.2436796 }, "geometry": { "type": "Point", "coordinates": [ -76.2436796, -10.7798907 ] } },
{ "type": "Feature", "properties": { "Nombre": "Dirección Regional de Agricultura Pasco", "Tipo de Em": "Oficinas de empresa", "Latitud": -10.6660667, "Longitud": -76.2526308 }, "geometry": { "type": "Point", "coordinates": [ -76.2526308, -10.6660667 ] } },
{ "type": "Feature", "properties": { "Nombre": "PASCO VIVE.", "Tipo de Em": "Oficinas de empresa", "Latitud": -10.6665023, "Longitud": -76.2524644 }, "geometry": { "type": "Point", "coordinates": [ -76.2524644, -10.6665023 ] } },
{ "type": "Feature", "properties": { "Nombre": "Soldaduras & Maquinarias Pasco", "Tipo de Em": "Taller de maquinaria", "Latitud": -10.6886411, "Longitud": -76.2543355 }, "geometry": { "type": "Point", "coordinates": [ -76.2543355, -10.6886411 ] } },
{ "type": "Feature", "properties": { "Nombre": "AlcaCompany Sede Cerro de Pasco", "Tipo de Em": "Almacén", "Latitud": -10.6861829, "Longitud": -76.2556788 }, "geometry": { "type": "Point", "coordinates": [ -76.2556788, -10.6861829 ] } },
{ "type": "Feature", "properties": { "Nombre": "GRUPO INTERNATIONAL PASCO", "Tipo de Em": "Establecimiento de venta de madera", "Latitud": -10.754183, "Longitud": -76.2582111 }, "geometry": { "type": "Point", "coordinates": [ -76.2582111, -10.754183 ] } },
{ "type": "Feature", "properties": { "Nombre": "GHL Constructora", "Tipo de Em": "Oficinas de empresa", "Latitud": -10.6666155, "Longitud": -76.2535877 }, "geometry": { "type": "Point", "coordinates": [ -76.2535877, -10.6666155 ] } },
{ "type": "Feature", "properties": { "Nombre": "Gobierno Regional Pasco Unidad Ejecutora Selva Central.", "Tipo de Em": "Consultora de administración empresarial", "Latitud": -10.5800397, "Longitud": -75.3993498 }, "geometry": { "type": "Point", "coordinates": [ -75.3993498, -10.5800397 ] } },
{ "type": "Feature", "properties": { "Nombre": "Corporación Águila's de Pasco Consultores", "Tipo de Em": "Servicio de registros contables", "Latitud": -10.6776695, "Longitud": -76.2612763 }, "geometry": { "type": "Point", "coordinates": [ -76.2612763, -10.6776695 ] } },
{ "type": "Feature", "properties": { "Nombre": "GRUPO TRAVEZAÑO", "Tipo de Em": "Constructor", "Latitud": -10.7847265, "Longitud": -76.2426149 }, "geometry": { "type": "Point", "coordinates": [ -76.2426149, -10.7847265 ] } },
{ "type": "Feature", "properties": { "Nombre": "Corporación Gesmimco S.A.C.", "Tipo de Em": "Empresa minera", "Latitud": -10.6637451, "Longitud": -76.2563461 }, "geometry": { "type": "Point", "coordinates": [ -76.2563461, -10.6637451 ] } },
{ "type": "Feature", "properties": { "Nombre": "EA. Cerro SAC", "Tipo de Em": "Empresa minera", "Latitud": -10.6747231, "Longitud": -76.2657035 }, "geometry": { "type": "Point", "coordinates": [ -76.2657035, -10.6747231 ] } },
{ "type": "Feature", "properties": { "Nombre": "Servicios Generales Salazar", "Tipo de Em": "Fábrica", "Latitud": -10.670612, "Longitud": -76.2716991 }, "geometry": { "type": "Point", "coordinates": [ -76.2716991, -10.670612 ] } },
{ "type": "Feature", "properties": { "Nombre": "FRANCAR S.C.R.L.", "Tipo de Em": "Oficinas de empresa", "Latitud": -10.6721904, "Longitud": -76.2687413 }, "geometry": { "type": "Point", "coordinates": [ -76.2687413, -10.6721904 ] } },
{ "type": "Feature", "properties": { "Nombre": "Depósito de Desmontes Excelsior - Cerro de Pasco", "Tipo de Em": "Mina", "Latitud": -10.6859804, "Longitud": -76.2710018 }, "geometry": { "type": "Point", "coordinates": [ -76.2710018, -10.6859804 ] } },
{ "type": "Feature", "properties": { "Nombre": "ATEC", "Tipo de Em": "Empresa de contabilidad", "Latitud": -10.664202, "Longitud": -76.2588646 }, "geometry": { "type": "Point", "coordinates": [ -76.2588646, -10.664202 ] } },
{ "type": "Feature", "properties": { "Nombre": "Asesoría Empresarial Peña", "Tipo de Em": "Consultora de administración empresarial", "Latitud": -10.6776695, "Longitud": -76.2612763 }, "geometry": { "type": "Point", "coordinates": [ -76.2612763, -10.6776695 ] } },
{ "type": "Feature", "properties": { "Nombre": "Sunass - ODS Pasco", "Tipo de Em": "Servicio de saneamiento", "Latitud": -10.6828326, "Longitud": -76.255948 }, "geometry": { "type": "Point", "coordinates": [ -76.255948, -10.6828326 ] } },
{ "type": "Feature", "properties": { "Nombre": "J&S SOLUCIONES TEXTILES - Asesoramientos a empresas de confección de prendas de vestir.", "Tipo de Em": "Fábrica", "Latitud": -10.6673697, "Longitud": -76.2551271 }, "geometry": { "type": "Point", "coordinates": [ -76.2551271, -10.6673697 ] } },
{ "type": "Feature", "properties": { "Nombre": "Constructora Y Multiservicios Astro S.R.L", "Tipo de Em": "Empresa constructora", "Latitud": -10.6659905, "Longitud": -76.2575785 }, "geometry": { "type": "Point", "coordinates": [ -76.2575785, -10.6659905 ] } },
{ "type": "Feature", "properties": { "Nombre": "Agencia de Transporte Expreso Molina Union S.A.C.(OF. 1)-Oxapampa", "Tipo de Em": "Agencia de viajes", "Latitud": -10.5740217, "Longitud": -75.4041427 }, "geometry": { "type": "Point", "coordinates": [ -75.4041427, -10.5740217 ] } },
{ "type": "Feature", "properties": { "Nombre": "color centro oxapampa", "Tipo de Em": "Empresa constructora", "Latitud": -10.580381, "Longitud": -75.3990272 }, "geometry": { "type": "Point", "coordinates": [ -75.3990272, -10.580381 ] } },
{ "type": "Feature", "properties": { "Nombre": "Site Oxapampa (Tdp)", "Tipo de Em": "Oficinas de empresa", "Latitud": -10.5755748, "Longitud": -75.403593 }, "geometry": { "type": "Point", "coordinates": [ -75.403593, -10.5755748 ] } },
{ "type": "Feature", "properties": { "Nombre": "Betgol Apuestas Deportivas - Oxapampa", "Tipo de Em": "Oficinas de empresa", "Latitud": -10.5779746, "Longitud": -75.4059422 }, "geometry": { "type": "Point", "coordinates": [ -75.4059422, -10.5779746 ] } },
{ "type": "Feature", "properties": { "Nombre": "ERWISAC", "Tipo de Em": "Empresa constructora", "Latitud": -10.5789544, "Longitud": -75.3963209 }, "geometry": { "type": "Point", "coordinates": [ -75.3963209, -10.5789544 ] } },
{ "type": "Feature", "properties": { "Nombre": "Empresa CBBC EIRL", "Tipo de Em": "Fábrica", "Latitud": -10.5752971, "Longitud": -75.4029883 }, "geometry": { "type": "Point", "coordinates": [ -75.4029883, -10.5752971 ] } },
{ "type": "Feature", "properties": { "Nombre": "Innovacon perú", "Tipo de Em": "Empresa constructora", "Latitud": -10.5733393, "Longitud": -75.4062091 }, "geometry": { "type": "Point", "coordinates": [ -75.4062091, -10.5733393 ] } },
{ "type": "Feature", "properties": { "Nombre": "Poder Judicial Sede Oxapampa", "Tipo de Em": "Oficinas de empresa", "Latitud": -10.573877, "Longitud": -75.4051432 }, "geometry": { "type": "Point", "coordinates": [ -75.4051432, -10.573877 ] } },
{ "type": "Feature", "properties": { "Nombre": "Chontabanba", "Tipo de Em": "Empresa constructora", "Latitud": -10.5750237, "Longitud": -75.400011 }, "geometry": { "type": "Point", "coordinates": [ -75.400011, -10.5750237 ] } },
{ "type": "Feature", "properties": { "Nombre": "Fábrica de ataúdes SHALOM", "Tipo de Em": "Carpintero", "Latitud": -10.573076, "Longitud": -75.4044301 }, "geometry": { "type": "Point", "coordinates": [ -75.4044301, -10.573076 ] } },
{ "type": "Feature", "properties": { "Nombre": "Shalom agencia Oxapampa", "Tipo de Em": "Servicio de mensajería", "Latitud": -10.5781968, "Longitud": -75.3990336 }, "geometry": { "type": "Point", "coordinates": [ -75.3990336, -10.5781968 ] } },
{ "type": "Feature", "properties": { "Nombre": "PARTIDO MORADO OXAPAMPA", "Tipo de Em": "Oficinas de empresa", "Latitud": -10.5789054, "Longitud": -75.39982 }, "geometry": { "type": "Point", "coordinates": [ -75.39982, -10.5789054 ] } },
{ "type": "Feature", "properties": { "Nombre": "ivp oxapampa", "Tipo de Em": "Oficinas de empresa", "Latitud": -10.5780534, "Longitud": -75.4048941 }, "geometry": { "type": "Point", "coordinates": [ -75.4048941, -10.5780534 ] } },
{ "type": "Feature", "properties": { "Nombre": "Transportes Digavy", "Tipo de Em": "Empresa de transporte por camión", "Latitud": -10.5744202, "Longitud": -75.4034906 }, "geometry": { "type": "Point", "coordinates": [ -75.4034906, -10.5744202 ] } },
{ "type": "Feature", "properties": { "Nombre": "Gobierno Regional Pasco Unidad Ejecutora Selva Central.", "Tipo de Em": "Consultora de administración empresarial", "Latitud": -10.5800397, "Longitud": -75.3993498 }, "geometry": { "type": "Point", "coordinates": [ -75.3993498, -10.5800397 ] } },
{ "type": "Feature", "properties": { "Nombre": "EPS SELVA CENTRAL S.A", "Tipo de Em": "Oficinas de empresa", "Latitud": -10.5768578, "Longitud": -75.395481 }, "geometry": { "type": "Point", "coordinates": [ -75.395481, -10.5768578 ] } },
{ "type": "Feature", "properties": { "Nombre": "️ Tienda Oxapampa - Metales Del Centro®", "Tipo de Em": "Fábrica", "Latitud": -10.5779734, "Longitud": -75.4105151 }, "geometry": { "type": "Point", "coordinates": [ -75.4105151, -10.5779734 ] } },
{ "type": "Feature", "properties": { "Nombre": "Empresa Arevil S.A.C.", "Tipo de Em": "Empresa constructora", "Latitud": -10.5783062, "Longitud": -75.40513 }, "geometry": { "type": "Point", "coordinates": [ -75.40513, -10.5783062 ] } },
{ "type": "Feature", "properties": { "Nombre": "3 Postales", "Tipo de Em": "Cervecería artesanal", "Latitud": -10.5772129, "Longitud": -75.3967003 }, "geometry": { "type": "Point", "coordinates": [ -75.3967003, -10.5772129 ] } },
{ "type": "Feature", "properties": { "Nombre": "Matadero Frigorífico Industrial Oxapampa S.A.", "Tipo de Em": "Mayorista de carnes", "Latitud": -10.5441808, "Longitud": -75.4313888 }, "geometry": { "type": "Point", "coordinates": [ -75.4313888, -10.5441808 ] } },
{ "type": "Feature", "properties": { "Nombre": "COFOPRI", "Tipo de Em": "Oficinas de empresa", "Latitud": -10.5759539, "Longitud": -75.3996025 }, "geometry": { "type": "Point", "coordinates": [ -75.3996025, -10.5759539 ] } },
{ "type": "Feature", "properties": { "Nombre": "Accodi S.A.C.", "Tipo de Em": "Empresa constructora", "Latitud": -10.5769869, "Longitud": -75.4016285 }, "geometry": { "type": "Point", "coordinates": [ -75.4016285, -10.5769869 ] } },
{ "type": "Feature", "properties": { "Nombre": "Claro Distribuidor Autorizado E&R Corp", "Tipo de Em": "Distribuidor de equipos de telecomunicación", "Latitud": -10.5740136, "Longitud": -75.4033264 }, "geometry": { "type": "Point", "coordinates": [ -75.4033264, -10.5740136 ] } },
{ "type": "Feature", "properties": { "Nombre": "YOHMIL S.A.C.", "Tipo de Em": "Ferretería", "Latitud": -10.5774907, "Longitud": -75.4051808 }, "geometry": { "type": "Point", "coordinates": [ -75.4051808, -10.5774907 ] } },
{ "type": "Feature", "properties": { "Nombre": "resaca de toro express - Licoreria Oxapampa", "Tipo de Em": "Pasaje Richle", "Latitud": -10.577104, "Longitud": -75.401041 }, "geometry": { "type": "Point", "coordinates": [ -75.401041, -10.577104 ] } },
{ "type": "Feature", "properties": { "Nombre": "Terminal Terrestre Oxapampa", "Tipo de Em": "Estación de autobuses", "Latitud": -10.5786938, "Longitud": -75.397861 }, "geometry": { "type": "Point", "coordinates": [ -75.397861, -10.5786938 ] } },
{ "type": "Feature", "properties": { "Nombre": "DRIS", "Tipo de Em": "Oficinas de empresa", "Latitud": -10.5750237, "Longitud": -75.400011 }, "geometry": { "type": "Point", "coordinates": [ -75.400011, -10.5750237 ] } },
{ "type": "Feature", "properties": { "Nombre": "Ferretería tabori", "Tipo de Em": "Empresa constructora", "Latitud": -10.5761185, "Longitud": -75.4036672 }, "geometry": { "type": "Point", "coordinates": [ -75.4036672, -10.5761185 ] } },
{ "type": "Feature", "properties": { "Nombre": "W&R Construc. Oxapampa", "Tipo de Em": "Constructor", "Latitud": -10.6255901, "Longitud": -75.3853675 }, "geometry": { "type": "Point", "coordinates": [ -75.3853675, -10.6255901 ] } },
{ "type": "Feature", "properties": { "Nombre": "AMPCON SAC", "Tipo de Em": "Empresa constructora", "Latitud": -10.5779801, "Longitud": -75.4046397 }, "geometry": { "type": "Point", "coordinates": [ -75.4046397, -10.5779801 ] } },
{ "type": "Feature", "properties": { "Nombre": "DHL OXAPAMPA - Agente Autorizado", "Tipo de Em": "Oficina de correos", "Latitud": -10.5746984, "Longitud": -75.4061348 }, "geometry": { "type": "Point", "coordinates": [ -75.4061348, -10.5746984 ] } },
{ "type": "Feature", "properties": { "Nombre": "Olva Courier Oxapampa", "Tipo de Em": "Servicio de mensajería", "Latitud": -10.5743897, "Longitud": -75.4021767 }, "geometry": { "type": "Point", "coordinates": [ -75.4021767, -10.5743897 ] } },
{ "type": "Feature", "properties": { "Nombre": "Constructora OxaCabins S.A.C.", "Tipo de Em": "Empresa constructora", "Latitud": -10.597755, "Longitud": -75.3868347 }, "geometry": { "type": "Point", "coordinates": [ -75.3868347, -10.597755 ] } },
{ "type": "Feature", "properties": { "Nombre": "Nolbert", "Tipo de Em": "Constructor", "Latitud": -10.5804182, "Longitud": -75.4068829 }, "geometry": { "type": "Point", "coordinates": [ -75.4068829, -10.5804182 ] } },
{ "type": "Feature", "properties": { "Nombre": "OXATEC OFICINA", "Tipo de Em": "Oficinas de empresa", "Latitud": -10.5723266, "Longitud": -75.3993139 }, "geometry": { "type": "Point", "coordinates": [ -75.3993139, -10.5723266 ] } },
{ "type": "Feature", "properties": { "Nombre": "CARGO EXPRESS", "Tipo de Em": "Empresa de transporte por camión", "Latitud": -10.5766258, "Longitud": -75.3984329 }, "geometry": { "type": "Point", "coordinates": [ -75.3984329, -10.5766258 ] } },
{ "type": "Feature", "properties": { "Nombre": "Jimmy's Tours Pozuzo - Oxapampa", "Tipo de Em": "Agencia de visitas turísticas", "Latitud": -10.575024, "Longitud": -75.400011 }, "geometry": { "type": "Point", "coordinates": [ -75.400011, -10.575024 ] } },
{ "type": "Feature", "properties": { "Nombre": "Maderas Oxapampa", "Tipo de Em": "Fábrica", "Latitud": -10.5744889, "Longitud": -75.3984975 }, "geometry": { "type": "Point", "coordinates": [ -75.3984975, -10.5744889 ] } },
{ "type": "Feature", "properties": { "Nombre": "Electrocentro", "Tipo de Em": "Compañía eléctrica", "Latitud": -10.5771542, "Longitud": -75.4052425 }, "geometry": { "type": "Point", "coordinates": [ -75.4052425, -10.5771542 ] } },
{ "type": "Feature", "properties": { "Nombre": "Terminal Terrestre Oxapampa", "Tipo de Em": "Servicio de transporte", "Latitud": -10.5778392, "Longitud": -75.3981081 }, "geometry": { "type": "Point", "coordinates": [ -75.3981081, -10.5778392 ] } },
{ "type": "Feature", "properties": { "Nombre": "E-CORP PERÙ S.A.C", "Tipo de Em": "Oficinas de empresa", "Latitud": -10.5741457, "Longitud": -75.4014229 }, "geometry": { "type": "Point", "coordinates": [ -75.4014229, -10.5741457 ] } },
{ "type": "Feature", "properties": { "Nombre": "Casa embrujada oxapampa", "Tipo de Em": "Sociedad de viviendas", "Latitud": -10.5749617, "Longitud": -75.3951011 }, "geometry": { "type": "Point", "coordinates": [ -75.3951011, -10.5749617 ] } },
{ "type": "Feature", "properties": { "Nombre": "Eduray SAC - Constructora e inmobiliaria", "Tipo de Em": "Constructor de casas personalizadas", "Latitud": -10.5802811, "Longitud": -75.3991179 }, "geometry": { "type": "Point", "coordinates": [ -75.3991179, -10.5802811 ] } },
{ "type": "Feature", "properties": { "Nombre": "Representaciones Frey", "Tipo de Em": "Apicultor", "Latitud": -10.5705571, "Longitud": -75.4073292 }, "geometry": { "type": "Point", "coordinates": [ -75.4073292, -10.5705571 ] } },
{ "type": "Feature", "properties": { "Nombre": "CONSTRUCTORA \"OMEGACORP\"", "Tipo de Em": "Constructor", "Latitud": -10.5742748, "Longitud": -75.4031124 }, "geometry": { "type": "Point", "coordinates": [ -75.4031124, -10.5742748 ] } },
{ "type": "Feature", "properties": { "Nombre": "AMAZON TOURS", "Tipo de Em": "Agencia de visitas turísticas", "Latitud": -10.5737791, "Longitud": -75.4051205 }, "geometry": { "type": "Point", "coordinates": [ -75.4051205, -10.5737791 ] } },
{ "type": "Feature", "properties": { "Nombre": "Movilizate", "Tipo de Em": "Diseñador de sitios web", "Latitud": -10.5750429, "Longitud": -75.4013252 }, "geometry": { "type": "Point", "coordinates": [ -75.4013252, -10.5750429 ] } },
{ "type": "Feature", "properties": { "Nombre": "\"CARNICERIA ARTESANAL ROJITAS\" Reserva de biosfera Oxapampa", "Tipo de Em": "Carnicería", "Latitud": -10.5763967, "Longitud": -75.3983255 }, "geometry": { "type": "Point", "coordinates": [ -75.3983255, -10.5763967 ] } },
{ "type": "Feature", "properties": { "Nombre": "Magra Burger - Hamburguesería Artesanal Oxapampa", "Tipo de Em": "Hamburguesa", "Latitud": -10.5764014, "Longitud": -75.3982165 }, "geometry": { "type": "Point", "coordinates": [ -75.3982165, -10.5764014 ] } },
{ "type": "Feature", "properties": { "Nombre": "Relleno Sanitario de Oxapampa", "Tipo de Em": "Servicio de recogida de basura", "Latitud": -10.5182572, "Longitud": -75.4692047 }, "geometry": { "type": "Point", "coordinates": [ -75.4692047, -10.5182572 ] } },
{ "type": "Feature", "properties": { "Nombre": "HughesNet AA InverStadSAC Oxapampa", "Tipo de Em": "Proveedor de servicios de Internet", "Latitud": -10.5751267, "Longitud": -75.4060909 }, "geometry": { "type": "Point", "coordinates": [ -75.4060909, -10.5751267 ] } },
{ "type": "Feature", "properties": { "Nombre": "Agencia cruz selvático", "Tipo de Em": "Agencia de viajes", "Latitud": -10.5752301, "Longitud": -75.4032616 }, "geometry": { "type": "Point", "coordinates": [ -75.4032616, -10.5752301 ] } },
{ "type": "Feature", "properties": { "Nombre": "DHL Express Service Point (AGENTE OXAPAMPA)", "Tipo de Em": "Servicio de mensajería", "Latitud": -10.5748668, "Longitud": -75.4062511 }, "geometry": { "type": "Point", "coordinates": [ -75.4062511, -10.5748668 ] } },
{ "type": "Feature", "properties": { "Nombre": "Cornesha Tours Oxapampa", "Tipo de Em": "Agencia de visitas turísticas", "Latitud": -10.5744916, "Longitud": -75.4036511 }, "geometry": { "type": "Point", "coordinates": [ -75.4036511, -10.5744916 ] } },
{ "type": "Feature", "properties": { "Nombre": "Torno y carpintería metálica", "Tipo de Em": "Fábrica", "Latitud": -10.570919, "Longitud": -75.4076359 }, "geometry": { "type": "Point", "coordinates": [ -75.4076359, -10.570919 ] } },
{ "type": "Feature", "properties": { "Nombre": "OXARIMA TOURS", "Tipo de Em": "Agencia de viajes", "Latitud": -10.5752371, "Longitud": -75.4035283 }, "geometry": { "type": "Point", "coordinates": [ -75.4035283, -10.5752371 ] } },
{ "type": "Feature", "properties": { "Nombre": "CASA LIMPIA OXAPAMPA", "Tipo de Em": "Proveedor de productos de limpieza", "Latitud": -10.5738316, "Longitud": -75.4064991 }, "geometry": { "type": "Point", "coordinates": [ -75.4064991, -10.5738316 ] } },
{ "type": "Feature", "properties": { "Nombre": "Tours en Oxapampa", "Tipo de Em": "Agencia de viajes", "Latitud": -10.569668, "Longitud": -75.404491 }, "geometry": { "type": "Point", "coordinates": [ -75.404491, -10.569668 ] } },
{ "type": "Feature", "properties": { "Nombre": "AGENCIA DE VIAJES PARAISO", "Tipo de Em": "Agencia de viajes", "Latitud": -10.5745346, "Longitud": -75.4037057 }, "geometry": { "type": "Point", "coordinates": [ -75.4037057, -10.5745346 ] } },
{ "type": "Feature", "properties": { "Nombre": "MTC - OXAPAMPA", "Tipo de Em": "Oficina de la Administración", "Latitud": -10.579571, "Longitud": -75.4029789 }, "geometry": { "type": "Point", "coordinates": [ -75.4029789, -10.579571 ] } },
{ "type": "Feature", "properties": { "Nombre": "Loma Tours", "Tipo de Em": "Agencia de visitas turísticas", "Latitud": -10.5738331, "Longitud": -75.4051588 }, "geometry": { "type": "Point", "coordinates": [ -75.4051588, -10.5738331 ] } },
{ "type": "Feature", "properties": { "Nombre": "Charcutería J Straub", "Tipo de Em": "Carnicería", "Latitud": -10.573622, "Longitud": -75.406967 }, "geometry": { "type": "Point", "coordinates": [ -75.406967, -10.573622 ] } },
{ "type": "Feature", "properties": { "Nombre": "Katy Tours Oxapampa", "Tipo de Em": "Agencia de visitas turísticas", "Latitud": -10.5776668, "Longitud": -75.3983824 }, "geometry": { "type": "Point", "coordinates": [ -75.3983824, -10.5776668 ] } },
{ "type": "Feature", "properties": { "Nombre": "Kushma Tours", "Tipo de Em": "Agencia de viajes", "Latitud": -10.5736245, "Longitud": -75.4046926 }, "geometry": { "type": "Point", "coordinates": [ -75.4046926, -10.5736245 ] } },
{ "type": "Feature", "properties": { "Nombre": "Camilo Tours", "Tipo de Em": "Agencia de visitas turísticas", "Latitud": -10.5741163, "Longitud": -75.4040604 }, "geometry": { "type": "Point", "coordinates": [ -75.4040604, -10.5741163 ] } },
{ "type": "Feature", "properties": { "Nombre": "En donde esta", "Tipo de Em": "Condominio", "Latitud": -10.5750237, "Longitud": -75.400011 }, "geometry": { "type": "Point", "coordinates": [ -75.400011, -10.5750237 ] } },
{ "type": "Feature", "properties": { "Nombre": "Carnicería Zoe", "Tipo de Em": "Carnicería", "Latitud": -10.5741118, "Longitud": -75.4070522 }, "geometry": { "type": "Point", "coordinates": [ -75.4070522, -10.5741118 ] } },
{ "type": "Feature", "properties": { "Nombre": "Aserradero Balarín", "Tipo de Em": "Aserradero", "Latitud": -10.5665732, "Longitud": -75.4079724 }, "geometry": { "type": "Point", "coordinates": [ -75.4079724, -10.5665732 ] } },
{ "type": "Feature", "properties": { "Nombre": "Sunarp", "Tipo de Em": "Oficinas de empresa", "Latitud": -10.5736548, "Longitud": -75.4069976 }, "geometry": { "type": "Point", "coordinates": [ -75.4069976, -10.5736548 ] } },
{ "type": "Feature", "properties": { "Nombre": "DESTINOS TOURS", "Tipo de Em": "Agencia de viajes", "Latitud": -10.5735774, "Longitud": -75.4045497 }, "geometry": { "type": "Point", "coordinates": [ -75.4045497, -10.5735774 ] } },
{ "type": "Feature", "properties": { "Nombre": "quetzal tours OXAPAMPA", "Tipo de Em": "Agencia de visitas turísticas", "Latitud": -10.5749817, "Longitud": -75.4069668 }, "geometry": { "type": "Point", "coordinates": [ -75.4069668, -10.5749817 ] } },
{ "type": "Feature", "properties": { "Nombre": "Oxapampa Agroindustria Sostenible- OXAAS", "Tipo de Em": "Tienda de alimentos naturales", "Latitud": -10.5863719, "Longitud": -75.3907198 }, "geometry": { "type": "Point", "coordinates": [ -75.3907198, -10.5863719 ] } },
{ "type": "Feature", "properties": { "Nombre": "Directv Agente Autorizado", "Tipo de Em": "Oficinas de empresa", "Latitud": -10.5751339, "Longitud": -75.4060898 }, "geometry": { "type": "Point", "coordinates": [ -75.4060898, -10.5751339 ] } },
{ "type": "Feature", "properties": { "Nombre": "Imprenta CRUZ Gigantografia Etiquetas", "Tipo de Em": "Imprenta", "Latitud": -10.573618, "Longitud": -75.404297 }, "geometry": { "type": "Point", "coordinates": [ -75.404297, -10.573618 ] } },
{ "type": "Feature", "properties": { "Nombre": "Walk expeditions", "Tipo de Em": "Agencia de viajes", "Latitud": -10.5740299, "Longitud": -75.4041979 }, "geometry": { "type": "Point", "coordinates": [ -75.4041979, -10.5740299 ] } },
{ "type": "Feature", "properties": { "Nombre": "Toro Negro", "Tipo de Em": "Carnicería", "Latitud": -10.5705482, "Longitud": -75.4076997 }, "geometry": { "type": "Point", "coordinates": [ -75.4076997, -10.5705482 ] } },
{ "type": "Feature", "properties": { "Nombre": "Of. BUSSINESS PRINTERTEX", "Tipo de Em": "Empresa constructora", "Latitud": -10.737868, "Longitud": -75.269143 }, "geometry": { "type": "Point", "coordinates": [ -75.269143, -10.737868 ] } },
{ "type": "Feature", "properties": { "Nombre": "Camal Municipal", "Tipo de Em": "Matadero", "Latitud": -10.5736593, "Longitud": -75.4074988 }, "geometry": { "type": "Point", "coordinates": [ -75.4074988, -10.5736593 ] } },
{ "type": "Feature", "properties": { "Nombre": "AGENCIA DE TURISMO YOMPORS TRAVEL", "Tipo de Em": "Agencia de viajes", "Latitud": -10.5744149, "Longitud": -75.4012783 }, "geometry": { "type": "Point", "coordinates": [ -75.4012783, -10.5744149 ] } },
{ "type": "Feature", "properties": { "Nombre": "RENIEC Oxapampa", "Tipo de Em": "Registro civil", "Latitud": -10.5725274, "Longitud": -75.4074888 }, "geometry": { "type": "Point", "coordinates": [ -75.4074888, -10.5725274 ] } },
{ "type": "Feature", "properties": { "Nombre": "Jungle Trips OXAPAMPA", "Tipo de Em": "Agencia de visitas turísticas", "Latitud": -10.5739549, "Longitud": -75.4041308 }, "geometry": { "type": "Point", "coordinates": [ -75.4041308, -10.5739549 ] } },
{ "type": "Feature", "properties": { "Nombre": "ASHO´SH COMUNIDAD ECOLOGICA", "Tipo de Em": "Condominio", "Latitud": -10.5750237, "Longitud": -75.400011 }, "geometry": { "type": "Point", "coordinates": [ -75.400011, -10.5750237 ] } },
{ "type": "Feature", "properties": { "Nombre": "Eventos Villafranca", "Tipo de Em": "Empresa de organización de eventos", "Latitud": -10.5741181, "Longitud": -75.4063551 }, "geometry": { "type": "Point", "coordinates": [ -75.4063551, -10.5741181 ] } },
{ "type": "Feature", "properties": { "Nombre": "ADRIAND", "Tipo de Em": "Fábrica", "Latitud": -11.0013981, "Longitud": -76.3661585 }, "geometry": { "type": "Point", "coordinates": [ -76.3661585, -11.0013981 ] } },
{ "type": "Feature", "properties": { "Nombre": "Universidad Nacional Daniel Alcides Carrión", "Tipo de Em": "Universidad pública", "Latitud": -10.6684375, "Longitud": -76.2527969 }, "geometry": { "type": "Point", "coordinates": [ -76.2527969, -10.6684375 ] } },
{ "type": "Feature", "properties": { "Nombre": "Daniel Alcides Carrión", "Tipo de Em": null, "Latitud": -10.4644912, "Longitud": -76.5025742 }, "geometry": { "type": "Point", "coordinates": [ -76.5025742, -10.4644912 ] } },
{ "type": "Feature", "properties": { "Nombre": "JRP Contratistas Generales SAC", "Tipo de Em": "Universidad pública", "Latitud": -10.6639957, "Longitud": -76.2533416 }, "geometry": { "type": "Point", "coordinates": [ -76.2533416, -10.6639957 ] } },
{ "type": "Feature", "properties": { "Nombre": "A.h Daniel Alcides Carrion", "Tipo de Em": "Cerro De Pasco 19001", "Latitud": -10.6630323, "Longitud": -76.2576879 }, "geometry": { "type": "Point", "coordinates": [ -76.2576879, -10.6630323 ] } },
{ "type": "Feature", "properties": { "Nombre": "Universidad Nacional Daniel Alcides Carrion - Sede Oxapampa - E.P. Ing. Ambiental", "Tipo de Em": "Universidad pública", "Latitud": -10.5941497, "Longitud": -75.3847514 }, "geometry": { "type": "Point", "coordinates": [ -75.3847514, -10.5941497 ] } },
{ "type": "Feature", "properties": { "Nombre": "Consultoría Esfade E.I.R.L.", "Tipo de Em": "Empresa de construcción", "Latitud": -10.6678884, "Longitud": -76.25237 }, "geometry": { "type": "Point", "coordinates": [ -76.25237, -10.6678884 ] } },
{ "type": "Feature", "properties": { "Nombre": "Institución Educativa Emblematica \"Daniel Alcides Carrión\"", "Tipo de Em": "Colegio concertado", "Latitud": -10.6880132, "Longitud": -76.2537755 }, "geometry": { "type": "Point", "coordinates": [ -76.2537755, -10.6880132 ] } },
{ "type": "Feature", "properties": { "Nombre": "Estadio Daniel A. Carrion", "Tipo de Em": "Estadio", "Latitud": -10.6849799, "Longitud": -76.2480272 }, "geometry": { "type": "Point", "coordinates": [ -76.2480272, -10.6849799 ] } },
{ "type": "Feature", "properties": { "Nombre": "Asesoria Tributaria y Empresarial CAJAHUAMAN", "Tipo de Em": "Oficinas de empresa", "Latitud": -10.666364, "Longitud": -76.2562795 }, "geometry": { "type": "Point", "coordinates": [ -76.2562795, -10.666364 ] } },
{ "type": "Feature", "properties": { "Nombre": "Ugel Daniel Alcides Carrion", "Tipo de Em": "Ministerio de Educación", "Latitud": -10.4907121, "Longitud": -76.5124777 }, "geometry": { "type": "Point", "coordinates": [ -76.5124777, -10.4907121 ] } },
{ "type": "Feature", "properties": { "Nombre": "CEA&M CORPORACIÓN SAC.", "Tipo de Em": "Empresa de construcción", "Latitud": -10.6894392, "Longitud": -76.2528611 }, "geometry": { "type": "Point", "coordinates": [ -76.2528611, -10.6894392 ] } },
{ "type": "Feature", "properties": { "Nombre": "Rocket Ideas", "Tipo de Em": "Empresa de software", "Latitud": -10.6669202, "Longitud": -76.254623 }, "geometry": { "type": "Point", "coordinates": [ -76.254623, -10.6669202 ] } },
{ "type": "Feature", "properties": { "Nombre": "Grupo Oyagui M&C E.I.R.L", "Tipo de Em": "Empresa constructora", "Latitud": -10.6672925, "Longitud": -76.2538969 }, "geometry": { "type": "Point", "coordinates": [ -76.2538969, -10.6672925 ] } },
{ "type": "Feature", "properties": { "Nombre": "CONSTRUCTORA TEO RUGOL BERNA MARITZA SCRL", "Tipo de Em": "Empresa constructora", "Latitud": -10.6768905, "Longitud": -76.2583934 }, "geometry": { "type": "Point", "coordinates": [ -76.2583934, -10.6768905 ] } },
{ "type": "Feature", "properties": { "Nombre": "ABC Sociedad Anónima Cerrada", "Tipo de Em": "Empresa de construcción", "Latitud": -10.6768905, "Longitud": -76.2583934 }, "geometry": { "type": "Point", "coordinates": [ -76.2583934, -10.6768905 ] } },
{ "type": "Feature", "properties": { "Nombre": "YARUCHAGUA", "Tipo de Em": "Empresa minera", "Latitud": -10.44105, "Longitud": -76.3302383 }, "geometry": { "type": "Point", "coordinates": [ -76.3302383, -10.44105 ] } },
{ "type": "Feature", "properties": { "Nombre": "Empresa de Transportes San Pedro", "Tipo de Em": "Servicio de transporte", "Latitud": -10.6666524, "Longitud": -76.2559526 }, "geometry": { "type": "Point", "coordinates": [ -76.2559526, -10.6666524 ] } },
{ "type": "Feature", "properties": { "Nombre": "PROLACSA LACTEOS", "Tipo de Em": "Fábrica", "Latitud": -10.6478072, "Longitud": -76.5162497 }, "geometry": { "type": "Point", "coordinates": [ -76.5162497, -10.6478072 ] } },
{ "type": "Feature", "properties": { "Nombre": "UNDAY TECHNOLOGY", "Tipo de Em": "Tienda de informática", "Latitud": -10.6673616, "Longitud": -76.2540352 }, "geometry": { "type": "Point", "coordinates": [ -76.2540352, -10.6673616 ] } },
{ "type": "Feature", "properties": { "Nombre": "LACVIDA CARBAS", "Tipo de Em": "Granja", "Latitud": -10.6481026, "Longitud": -76.517127 }, "geometry": { "type": "Point", "coordinates": [ -76.517127, -10.6481026 ] } },
{ "type": "Feature", "properties": { "Nombre": "A2O Solutions SAC", "Tipo de Em": "Consultora de administración empresarial", "Latitud": -10.3007369, "Longitud": -75.4311374 }, "geometry": { "type": "Point", "coordinates": [ -75.4311374, -10.3007369 ] } },
{ "type": "Feature", "properties": { "Nombre": "Paucar", "Tipo de Em": "19750", "Latitud": -10.3402772, "Longitud": -76.4215988 }, "geometry": { "type": "Point", "coordinates": [ -76.4215988, -10.3402772 ] } },
{ "type": "Feature", "properties": { "Nombre": "Facultad Ciencias Económicas Y Contables", "Tipo de Em": "Centro de formación profesional", "Latitud": -10.6682733, "Longitud": -76.2534903 }, "geometry": { "type": "Point", "coordinates": [ -76.2534903, -10.6682733 ] } },
{ "type": "Feature", "properties": { "Nombre": "Municipalidad Provincial Daniel Alcides Carrión", "Tipo de Em": "Diputación provincial", "Latitud": -10.491701, "Longitud": -76.5158424 }, "geometry": { "type": "Point", "coordinates": [ -76.5158424, -10.491701 ] } },
{ "type": "Feature", "properties": { "Nombre": "Bonilla Consultores & Auditores", "Tipo de Em": "Empresa de contabilidad", "Latitud": -10.6666708, "Longitud": -76.2555674 }, "geometry": { "type": "Point", "coordinates": [ -76.2555674, -10.6666708 ] } },
{ "type": "Feature", "properties": { "Nombre": "Inversiones AM", "Tipo de Em": "Proveedor de servicios de Internet", "Latitud": -10.6694851, "Longitud": -76.2498787 }, "geometry": { "type": "Point", "coordinates": [ -76.2498787, -10.6694851 ] } },
{ "type": "Feature", "properties": { "Nombre": "Tapuc", "Tipo de Em": "19740", "Latitud": -10.4551081, "Longitud": -76.4599238 }, "geometry": { "type": "Point", "coordinates": [ -76.4599238, -10.4551081 ] } },
{ "type": "Feature", "properties": { "Nombre": "ASOCIACION CULTURAL F.C RENACER ANDINA", "Tipo de Em": "Organizador de eventos", "Latitud": -10.6666875, "Longitud": -76.2518125 }, "geometry": { "type": "Point", "coordinates": [ -76.2518125, -10.6666875 ] } },
{ "type": "Feature", "properties": { "Nombre": "cerro de pasco", "Tipo de Em": "Sociedad de viviendas", "Latitud": -10.667215, "Longitud": -76.2528757 }, "geometry": { "type": "Point", "coordinates": [ -76.2528757, -10.667215 ] } },
{ "type": "Feature", "properties": { "Nombre": "Multiproductos Alexander", "Tipo de Em": "Tienda de material escolar", "Latitud": -10.6628272, "Longitud": -76.2561336 }, "geometry": { "type": "Point", "coordinates": [ -76.2561336, -10.6628272 ] } },
{ "type": "Feature", "properties": { "Nombre": "Consorcio Hidalgo", "Tipo de Em": "Tienda de informática", "Latitud": -10.67409, "Longitud": -76.2675187 }, "geometry": { "type": "Point", "coordinates": [ -76.2675187, -10.67409 ] } },
{ "type": "Feature", "properties": { "Nombre": "BITEL YANAHUANCA - DISTRIBUIDOR PUNTO DE ATENCION Y RECLAMOS BITEL", "Tipo de Em": "Proveedor de servicios de telecomunicaciones", "Latitud": -10.4923619, "Longitud": -76.5161137 }, "geometry": { "type": "Point", "coordinates": [ -76.5161137, -10.4923619 ] } },
{ "type": "Feature", "properties": { "Nombre": "Santa Natura - Pasco", "Tipo de Em": "Proveedor mayorista de alimentos", "Latitud": -10.6836163, "Longitud": -76.2561278 }, "geometry": { "type": "Point", "coordinates": [ -76.2561278, -10.6836163 ] } },
{ "type": "Feature", "properties": { "Nombre": "Centro Poblado Santa Ana de Ragan", "Tipo de Em": "Sociedad de viviendas", "Latitud": -10.4684574, "Longitud": -76.2606351 }, "geometry": { "type": "Point", "coordinates": [ -76.2606351, -10.4684574 ] } },
{ "type": "Feature", "properties": { "Nombre": "FALCON TECH J&S", "Tipo de Em": "Servicio de reparación de ordenadores", "Latitud": -10.6669975, "Longitud": -76.254445 }, "geometry": { "type": "Point", "coordinates": [ -76.254445, -10.6669975 ] } },
{ "type": "Feature", "properties": { "Nombre": "Sunat", "Tipo de Em": "Oficinas de empresa", "Latitud": -10.6672438, "Longitud": -76.2502797 }, "geometry": { "type": "Point", "coordinates": [ -76.2502797, -10.6672438 ] } },
{ "type": "Feature", "properties": { "Nombre": "Radio ESTACIÓN SOLAR", "Tipo de Em": "Empresa de medios de comunicación", "Latitud": -10.6632761, "Longitud": -76.2561165 }, "geometry": { "type": "Point", "coordinates": [ -76.2561165, -10.6632761 ] } },
{ "type": "Feature", "properties": { "Nombre": "Oeemm-TV", "Tipo de Em": "Film production company", "Latitud": -10.3007369, "Longitud": -75.4311374 }, "geometry": { "type": "Point", "coordinates": [ -75.4311374, -10.3007369 ] } },
{ "type": "Feature", "properties": { "Nombre": "Ricco di Delizioso", "Tipo de Em": "Pastelería", "Latitud": -10.6768905, "Longitud": -76.2583934 }, "geometry": { "type": "Point", "coordinates": [ -76.2583934, -10.6768905 ] } },
{ "type": "Feature", "properties": { "Nombre": "San Juan Baños de Rabi", "Tipo de Em": "Rancho ganadero", "Latitud": -10.5301, "Longitud": -76.5978 }, "geometry": { "type": "Point", "coordinates": [ -76.5978, -10.5301 ] } },
{ "type": "Feature", "properties": { "Nombre": "VELOZMENTE", "Tipo de Em": "Delivery service", "Latitud": -10.6768905, "Longitud": -76.2583934 }, "geometry": { "type": "Point", "coordinates": [ -76.2583934, -10.6768905 ] } },
{ "type": "Feature", "properties": { "Nombre": "Radio JM", "Tipo de Em": "Emisora de radio", "Latitud": -10.6768905, "Longitud": -76.2583934 }, "geometry": { "type": "Point", "coordinates": [ -76.2583934, -10.6768905 ] } },
{ "type": "Feature", "properties": { "Nombre": "Tortas y Mas", "Tipo de Em": "Pastelería", "Latitud": -10.6679092, "Longitud": -76.2522872 }, "geometry": { "type": "Point", "coordinates": [ -76.2522872, -10.6679092 ] } }
]
}
